{
"type": "FeatureCollection",
"crs": { "type": "name", "properties": { "name": "urn:ogc:def:crs:OGC:1.3:CRS84" } },
                                                                                
"features": [
{"type":"Feature","geometry":{"type":"Point","coordinates":[139.9000454,35.8950726]},"properties":{"HID":"1001","Type":"認可保育所","Name":"中野久木保育所","Label":"中野久木保育所","Add1":"流山市中野久木373","Y":"35.8950726","X":"139.9000454","TEL":"04-7152-0921","AgeS":"６カ月","Full":"120","Open":"7:00","Close":"19:00","Extra":"Y","Temp":null,"url":"http://www.city.nagareyama.chiba.jp/institution/101/595/005469.html","Memo":"延長保育（午後）（土）：16:00～19:00<br />病後児保育：なし<br />統合保育：あり<br />送迎用駐車場：あり"}},
{"type":"Feature","geometry":{"type":"Point","coordinates":[139.9038907,35.854035] },"properties":{"HID":"1002","Type":"認可保育所","Name":"平和台保育所","Label":"平和台保育所","Add1":"流山市平和台2-6-3","Y":"35.854035","X":"139.9038907","TEL":"04-7158-1424","AgeS":"６カ月","Full":"180","Open":"7:00","Close":"19:00","Extra":"Y","Temp":null,"url":"http://www.city.nagareyama.chiba.jp/institution/101/595/005470.html","Memo":"延長保育（午後）（土）：16:00～19:00<br />病後児保育：なし<br />統合保育：なし<br />送迎用駐車場：あり"}},
{"type":"Feature","geometry":{"type":"Point","coordinates":[139.9127552,35.9000467]},"properties":{"HID":"1003","Type":"認可保育所","Name":"江戸川台保育所","Label":"江戸川台保育所","Add1":"流山市江戸川台東3-5","Y":"35.9000467","X":"139.9127552","TEL":"04-7152-0611","AgeS":"６カ月","Full":"120","Open":"7:00","Close":"19:00","Extra":"Y","Temp":null,"url":"http://www.city.nagareyama.chiba.jp/institution/101/595/005471.html","Memo":"延長保育（午後）（土）：16:00～19:00<br />病後児保育：なし<br />統合保育：なし<br />送迎用駐車場：あり"}},
{"type":"Feature","geometry":{"type":"Point","coordinates":[139.950323,35.83969]   },"properties":{"HID":"1004","Type":"認可保育所","Name":"向小金保育所","Label":"向小金保育所","Add1":"流山市向小金3-102-1","Y":"35.83969","X":"139.950323","TEL":"04-7174-5217","AgeS":"６カ月","Full":"120","Open":"7:00","Close":"19:00","Extra":"Y","Temp":null,"url":"http://www.city.nagareyama.chiba.jp/institution/101/595/005472.html","Memo":"延長保育（午後）（土）：16:00～19:00<br />病後児保育：なし<br />統合保育：なし<br />送迎用駐車場：あり"}},
{"type":"Feature","geometry":{"type":"Point","coordinates":[139.9088912,35.9093342]},"properties":{"HID":"1005","Type":"認可保育所","Name":"東深井保育所","Label":"東深井保育所","Add1":"流山市東深井177-2","Y":"35.9093342","X":"139.9088912","TEL":"04-7154-6025","AgeS":"６カ月","Full":"120","Open":"7:00","Close":"19:00","Extra":"Y","Temp":null,"url":"http://www.city.nagareyama.chiba.jp/institution/5447/006271.html","Memo":"延長保育（午後）（土）：16:00～19:00<br />病後児保育：なし<br />統合保育：なし<br />送迎用駐車場：あり"}},
{"type":"Feature","geometry":{"type":"Point","coordinates":[139.8964612,35.8414897]},"properties":{"HID":"1006","Type":"認可保育所","Name":"なかよし保育園","Label":"なかよし保育園","Add1":"流山市南流山7-5-1","Y":"35.8414897","X":"139.8964612","TEL":"04-7158-5500","AgeS":"生後43日","Full":"120","Open":"7:00","Close":"20:00","Extra":"Y","Temp":null,"url":"http://nakayoshi.minaminagareyama.com/","Memo":"延長保育（午後）（土）：16:00～19:00<br />病後児保育：なし<br />統合保育：なし<br />送迎用駐車場：あり"}},
{"type":"Feature","geometry":{"type":"Point","coordinates":[139.9324459,35.8734129]},"properties":{"HID":"1007","Type":"認可保育所","Name":"おおたかの森ナーサリースクール","Label":"おおたかの森ナーサリースクール","Add1":"流山市十太夫99-4","Y":"35.8734129","X":"139.9324459","TEL":"04-7154-2448","AgeS":"生後57日","Full":"220(分園含む)","Open":"7:00","Close":"19:30","Extra":"Y","Temp":null,"url":"http://ons.tksg.ed.jp/","Memo":"延長保育（午後）（土）：16:00～19:30<br />病後児保育：なし<br />統合保育：なし<br />送迎用駐車場：あり"}},
{"type":"Feature","geometry":{"type":"Point","coordinates":[139.9308677,35.8875299]},"properties":{"HID":"1008","Type":"認可保育所","Name":"八木北保育園","Label":"八木北保育園","Add1":"流山市駒木台118-1","Y":"35.8875299","X":"139.9308677","TEL":"04-7152-0504","AgeS":"生後57日","Full":"120","Open":"7:00","Close":"20:00","Extra":"Y","Temp":null,"url":"http://yagikita.jp/company/index.html","Memo":"延長保育（午後）（土）：16:00～17:30<br />病後児保育：なし<br />統合保育：なし<br />送迎用駐車場：あり"}},
{"type":"Feature","geometry":{"type":"Point","coordinates":[139.9406514,35.8519112]},"properties":{"HID":"1009","Type":"認可保育所","Name":"松の実保育園","Label":"松の実保育園","Add1":"流山市名都借464","Y":"35.8519112","X":"139.9406514","TEL":"04-7145-4312","AgeS":"生後57日","Full":"90","Open":"7:00","Close":"19:00","Extra":"Y","Temp":null,"url":"http://www.city.nagareyama.chiba.jp/institution/101/595/005477.html","Memo":"延長保育（午後）（土）：16:00～18:00<br />病後児保育：なし<br />統合保育：なし<br />送迎用駐車場：あり"}},
{"type":"Feature","geometry":{"type":"Point","coordinates":[139.9041631,35.8487219]},"properties":{"HID":"1010","Type":"認可保育所","Name":"流山セントラルナーサリースクール","Label":"流山セントラルナーサリースクール","Add1":"流山市西平井588","Y":"35.8487219","X":"139.9041631","TEL":"04-7159-7473","AgeS":"生後57日","Full":"149(分園含む)","Open":"7:00","Close":"19:30","Extra":"Y","Temp":null,"url":"http://nishihirai.tksg.ed.jp/","Memo":"延長保育（午後）（土）：16:00～19:30<br />病後児保育：なし<br />統合保育：なし<br />送迎用駐車場：あり"}},
{"type":"Feature","geometry":{"type":"Point","coordinates":[139.9105535,35.8711408]},"properties":{"HID":"1011","Type":"認可保育所","Name":"かやの木保育園","Label":"かやの木保育園","Add1":"流山市大畔198","Y":"35.8711408","X":"139.9105535","TEL":"04-7159-2700","AgeS":"生後57日","Full":"120","Open":"7:00","Close":"21:00","Extra":"Y","Temp":"Y","url":"http://www.kayanoki-hoiku.com/","Memo":"延長保育（午後）（土）：16:00～18:30<br />病後児保育：なし<br />統合保育：なし<br />送迎用駐車場：あり"}},
{"type":"Feature","geometry":{"type":"Point","coordinates":[139.9144373,35.8443809]},"properties":{"HID":"1012","Type":"認可保育所","Name":"みやぞの保育園","Label":"みやぞの保育園","Add1":"流山市宮園2-8-15","Y":"35.8443809","X":"139.9144373","TEL":"04-7159-3954","AgeS":"生後43日","Full":"80","Open":"7:00","Close":"21:00","Extra":"Y","Temp":"Y","url":"http://miyazono.azalee-kids.or.jp/","Memo":"延長保育（午後）（土）：16:00～21:00<br />病後児保育：なし<br />統合保育：なし<br />送迎用駐車場：あり"}},
{"type":"Feature","geometry":{"type":"Point","coordinates":[139.9056931,35.8621171]},"properties":{"HID":"1013","Type":"認可保育所","Name":"生活クラブ風の村わらしこ保育園流山","Label":"生活クラブ風の村　わらしこ保育園流山","Add1":"流山市加4-12","Y":"35.8621171","X":"139.9056931","TEL":"04-7150-2654","AgeS":"生後43日","Full":"70","Open":"7:00","Close":"22:00","Extra":"Y","Temp":"Y","url":"http://kazenomura.jp/search/shisetsu/hoiku.nagareyama.html","Memo":"延長保育（午後）（土）：16:00～19:00<br />病後児保育：あり<br />統合保育：なし<br />送迎用駐車場：あり"}},
{"type":"Feature","geometry":{"type":"Point","coordinates":[139.9006221,35.8352184]},"properties":{"HID":"1014","Type":"認可保育所","Name":"南流山聖華保育園","Label":"南流山聖華保育園","Add1":"流山市南流山2-29-4","Y":"35.8352184","X":"139.9006221","TEL":"04-7159-3401","AgeS":"生後57日","Full":"174(分園含む)","Open":"7:00","Close":"21:00","Extra":"Y","Temp":"Y","url":"http://seika-group.com/minaminagareyama/","Memo":"延長保育（午後）（土）：16:00～21:00<br />病後児保育：あり<br />統合保育：なし<br />送迎用駐車場：あり"}},
{"type":"Feature","geometry":{"type":"Point","coordinates":[139.9014939,35.848572] },"properties":{"HID":"1015","Type":"認可保育所","Name":"城の星保育園","Label":"城の星保育園","Add1":"流山市流山9-500-42","Y":"35.848572","X":"139.9014939","TEL":"04-7170-2111","AgeS":"生後57日","Full":"120","Open":"7:00","Close":"20:00","Extra":"Y","Temp":"Y","url":"http://www.akagimanyo.com/hoiku_gaiyou/index.html","Memo":"延長保育（午後）（土）：16:00～19:30<br />病後児保育：なし<br />統合保育：なし<br />送迎用駐車場：あり"}},
{"type":"Feature","geometry":{"type":"Point","coordinates":[139.9084171,35.8870296]},"properties":{"HID":"1016","Type":"認可保育所","Name":"森の葉保育園","Label":"森の葉保育園","Add1":"流山市上新宿111-8","Y":"35.8870296","X":"139.9084171","TEL":"04-7138-5105","AgeS":"生後57日","Full":"90","Open":"7:00","Close":"20:00","Extra":"Y","Temp":null,"url":"http://www.kaburakigakuen-ryofukai.jp/morinoha/","Memo":"延長保育（午後）（土）：16:00～20:00<br />病後児保育：なし<br />統合保育：なし<br />送迎用駐車場：あり"}},
{"type":"Feature","geometry":{"type":"Point","coordinates":[139.9073714,35.8381402]},"properties":{"HID":"1017","Type":"認可保育所","Name":"聖華いつき保育園","Label":"聖華いつき保育園","Add1":"流山市南流山1-17-4","Y":"35.8381402","X":"139.9073714","TEL":"04-7158-1145","AgeS":"生後57日","Full":"90","Open":"7:00","Close":"20:00","Extra":"Y","Temp":"Y","url":"http://seika-group.com/itsuki/","Memo":"延長保育（午後）（土）：16:00～20:00<br />病後児保育：なし<br />統合保育：なし<br />送迎用駐車場：あり"}},
{"type":"Feature","geometry":{"type":"Point","coordinates":[139.9386257,35.8773319]},"properties":{"HID":"1018","Type":"認可保育所","Name":"えどがわ森の保育園","Label":"えどがわ森の保育園","Add1":"流山市駒木474","Y":"35.8773319","X":"139.9386257","TEL":"04-7152-1155","AgeS":"生後57日","Full":"120","Open":"7:00","Close":"20:00","Extra":"Y","Temp":"Y","url":"http://www.morinohoikuen.jp/","Memo":"延長保育（午後）（土）：16:00～20:00<br />病後児保育：なし<br />統合保育：なし<br />送迎用駐車場：あり"}},
{"type":"Feature","geometry":{"type":"Point","coordinates":[139.9297462,35.8717242]},"properties":{"HID":"1019","Type":"認可保育所","Name":"ロータスキッズスクエア","Label":"ロータスキッズスクエア","Add1":"流山市東初石6-186-24","Y":"35.8717242","X":"139.9297462","TEL":"04-7136-1020","AgeS":"生後57日","Full":"90","Open":"7:00","Close":"19:30","Extra":"Y","Temp":null,"url":"http://lks.tksg.ed.jp/","Memo":"延長保育（午後）（土）：16:00～18:30<br />病後児保育：なし<br />統合保育：なし<br />送迎用駐車場：なし"}},
{"type":"Feature","geometry":{"type":"Point","coordinates":[139.943336,35.844174]  },"properties":{"HID":"1020","Type":"認可保育所","Name":"名都借みらい保育園","Label":"名都借みらい保育園","Add1":"流山市名都借286-5","Y":"35.844174","X":"139.943336","TEL":"04-7170-1417","AgeS":"生後43日","Full":"120","Open":"7:00","Close":"21:00","Extra":"Y","Temp":"Y","url":"http://mirai.azalee-kids.or.jp/","Memo":"延長保育（午後）（土）：16:00～21:00<br />病後児保育：なし<br />統合保育：なし<br />送迎用駐車場：あり"}},
{"type":"Feature","geometry":{"type":"Point","coordinates":[139.9311075,35.861101] },"properties":{"HID":"1021","Type":"認可保育所","Name":"おおたかの森聖華保育園","Label":"おおたかの森聖華保育園","Add1":"流山市長崎2-24-1","Y":"35.861101","X":"139.9311075","TEL":"04-7159-3401","AgeS":"生後57日","Full":"120","Open":"7:00","Close":"20:00","Extra":"Y","Temp":"Y","url":"http://seika-group.com/ootakanomori/","Memo":"延長保育（午後）（土）：16:00～20:00<br />病後児保育：なし<br />統合保育：なし<br />送迎用駐車場：あり"}},
{"type":"Feature","geometry":{"type":"Point","coordinates":[139.925512,35.861366]  },"properties":{"HID":"1022","Type":"認可保育所","Name":"城の星おおたかの森保育園","Label":"城の星おおたかの森保育園","Add1":"流山市野々下1-292","Y":"35.861366","X":"139.925512","TEL":"04-7197-2666","AgeS":"生後57日","Full":"209(分園含む)","Open":"7:00","Close":"20:00","Extra":"Y","Temp":"Y","url":"http://www.akagimanyo.com/hoiku2_gaiyou/","Memo":"延長保育（午後）（土）：16:00～19:30<br />病後児保育：なし<br />統合保育：なし<br />送迎用駐車場：あり"}},
{"type":"Feature","geometry":{"type":"Point","coordinates":[139.899538,35.831845]  },"properties":{"HID":"1023","Type":"認可保育所","Name":"えどがわ南流山保育園","Label":"えどがわ南流山保育園","Add1":"流山市木305","Y":"35.831845","X":"139.899538","TEL":"04-7157-8855","AgeS":"生後57日","Full":"120","Open":"7:00","Close":"20:00","Extra":"Y","Temp":null,"url":"http://www.edogawaminami.jp/","Memo":"延長保育（午後）（土）：16:00～20:00<br />病後児保育：なし<br />統合保育：なし<br />送迎用駐車場：あり"}},
{"type":"Feature","geometry":{"type":"Point","coordinates":[139.909955,35.897807]  },"properties":{"HID":"1024","Type":"認可保育所","Name":"ぽけっとランド江戸川台駅前保育園","Label":"ぽけっとランド江戸川台駅前保育園","Add1":"流山市江戸川台西2-3-1","Y":"35.897807","X":"139.909955","TEL":"04-7156-3155","AgeS":"生後57日","Full":"45","Open":"7:00","Close":"20:00","Extra":"Y","Temp":null,"url":"http://www.pocket-land.jp/edogawadai/","Memo":"延長保育（午後）（土）：16:00～20:00<br />病後児保育：なし<br />統合保育：なし<br />送迎用駐車場：あり"}},
{"type":"Feature","geometry":{"type":"Point","coordinates":[139.922762,35.876126]  },"properties":{"HID":"1025","Type":"認可保育所","Name":"けやきの森保育園おおたかの森園","Label":"けやきの森保育園おおたかの森園","Add1":"流山市新市街地地区C78街区1","Y":"35.876126","X":"139.922762","TEL":"04-7155-8022","AgeS":"生後57日","Full":"150","Open":"7:00","Close":"19:30","Extra":"Y","Temp":"Y","url":"http://www.keyakinomori.ed.jp/","Memo":"延長保育（午後）（土）：16:00～18:30<br />病後児保育：なし<br />統合保育：なし<br />送迎用駐車場：あり"}},
{"type":"Feature","geometry":{"type":"Point","coordinates":[139.926358,35.872679]  },"properties":{"HID":"1026","Type":"認可保育所","Name":"おおたかの森ヒルズナーサリースクール","Label":"おおたかの森ヒルズナーサリースクール","Add1":"流山市東初石6-183-1ﾗｲﾌｶﾞｰﾃﾞﾝ流山おおたかの森301","Y":"35.872679","X":"139.926358","TEL":"04-7197-7068","AgeS":"生後57日","Full":"120","Open":"7:00","Close":"20:00","Extra":"Y","Temp":null,"url":"http://o-hills.tksg.ed.jp/","Memo":"延長保育（午後）（土）：16:00～19:00<br />病後児保育：なし<br />統合保育：なし<br />送迎用駐車場：なし"}},
{"type":"Feature","geometry":{"type":"Point","coordinates":[139.926207,35.878648]  },"properties":{"HID":"1027","Type":"認可保育所","Name":"聖華マリン保育園","Label":"聖華マリン保育園","Add1":"流山市東初石5-141-25（新C44街区6）","Y":"35.878648","X":"139.926207","TEL":"04-7154-5252","AgeS":"生後57日","Full":"120","Open":"7:00","Close":"20:00","Extra":"Y","Temp":"Y","url":"http://seika-group.com/marin/","Memo":"延長保育（午後）（土）：16:00～20:00<br />病後児保育：なし<br />統合保育：なし<br />送迎用駐車場：あり"}},
{"type":"Feature","geometry":{"type":"Point","coordinates":[139.926527,35.866464]},"properties":{"HID":"1028","Type":"認可保育所","Name":"慶櫻おおたかの森保育園","Label":"慶櫻おおたかの森保育園","Add1":"流山市市野谷787-2(新A24街区2画地）","Y":"35.866464","X":"139.926527","TEL":"04-7189-8900","AgeS":"６カ月","Full":"150","Open":"7:00","Close":"20:00","Extra":"Y","Temp":null,"url":"http://www.shakaihukusihoujinnmusashinokai.com/ootaka/index.html","Memo":"延長保育（午後）（土）：16:00～19:00<br />病後児保育：なし<br />統合保育：なし<br />送迎用駐車場：あり"}},
{"type":"Feature","geometry":{"type":"Point","coordinates":[139.918636,35.876854]  },"properties":{"HID":"1029","Type":"認可保育所","Name":"暁の星保育園","Label":"暁の星保育園","Add1":"流山市西初石5-69-1（新B8街区１）","Y":"35.876854","X":"139.918636","TEL":"04-7197-7756","AgeS":"生後57日","Full":"120","Open":"7:00","Close":"20:00","Extra":"Y","Temp":null,"url":"http://www.akagimanyo.com/hoiku3_gaiyou/index.html","Memo":"延長保育（午後）（土）：16:00～19:30<br />病後児保育：なし<br />統合保育：なし<br />送迎用駐車場：あり"}},
{"type":"Feature","geometry":{"type":"Point","coordinates":[139.899092,35.837465]  },"properties":{"HID":"1030","Type":"認可保育所","Name":"南流山保育園ひびき","Label":"南流山保育園ひびき","Add1":"流山市南流山6-13-4","Y":"35.837465","X":"139.899092","TEL":"04-7199-7815","AgeS":"生後57日","Full":"120","Open":"7:00","Close":"20:00","Extra":"Y","Temp":"Y","url":"http://www.ohisama-kai.org/establishment/minami_hibiki.html","Memo":"延長保育（午後）（土）：16:00～20:00<br />病後児保育：なし<br />統合保育：なし<br />送迎用駐車場：あり"}},
{"type":"Feature","geometry":{"type":"Point","coordinates":[139.9227,35.869063] },"properties":{"HID":"1031","Type":"認可保育所","Name":"スターキッズおおたかの森園","Label":"スターキッズおおたかの森園","Add1":"流山市市野谷660-1(新A-4街区-1ザ・フォレストレジデンスK-3）","Y":"35.869063","X":"139.9227","TEL":"04-7178-7234","AgeS":"生後43日","Full":"18","Open":"7:00","Close":"20:00","Extra":"Y","Temp":null,"url":"http://www.goodstar-inc.com/otaka/","Memo":"延長保育（午後）（土）：16:00～20:00<br />病後児保育：なし<br />統合保育：なし<br />送迎用駐車場：なし"}},
{"type":"Feature","geometry":{"type":"Point","coordinates":[139.927213,35.874815]},"properties":{"HID":"1032","Type":"認可保育所","Name":"（仮称）けやきの森保育園\nおおたかの森第二","Label":"（仮称）けやきの森保育園\nおおたかの森第二","Add1":"流山市新市街地地区C141街区2","Y":"35.85631","X":"139.90266","TEL":"04-7155-8022\n（けやきの森保育園おおたかの森園）","AgeS":"生後57日から","Full":"60","Open":"7:00","Close":"19:30","Extra":"Y","Temp":"null","url":"http://www.keyakinomori.ed.jp/","Memo":"延長保育（午後）（土）：16:00～18:30<br />病後児保育：なし<br />統合保育：なし<br />送迎用駐車場：なし<br />平成27年12月新規開設保育園"}},
{"type":"Feature","geometry":{"type":"Point","coordinates":[139.89228,35.834046]},"properties":{"HID":"1033","Type":"認可保育所","Name":"（仮称）南流山ちとせ保育園","Label":"（仮称）南流山ちとせ保育園","Add1":"流山市木436-1（木B109街区1）","Y":"35.85631","X":"139.90266","TEL":"03-3727-1833\n（グリーンヒル奥沢保育園）","AgeS":"生後57日から","Full":"120","Open":"7:00","Close":"20:00","Extra":"Y","Temp":"Y","url":"http://www.chitosek.or.jp/","Memo":"延長保育（午後）（土）：16:00～19:00<br />病後児保育：なし<br />統合保育：なし<br />送迎用駐車場：あり<br />平成28年度新規開設保育園"}},
{"type":"Feature","geometry":{"type":"Point","coordinates":[139.90471,35.835757]},"properties":{"HID":"1034","Type":"認可保育所","Name":"（仮称）南流山ナーサリースクール","Label":"（仮称）南流山ナーサリースクール","Add1":"流山市南流山2-8-3","Y":"35.85631","X":"139.90266","TEL":"04-7157-8300","AgeS":"生後57日から","Full":"90","Open":"7:00","Close":"19:30","Extra":"Y","Temp":"null","url":"http://nishihirai.tksg.ed.jp/guide/index.html","Memo":"延長保育（午後）（土）：16:00～19:00<br />病後児保育：なし<br />統合保育：なし<br />送迎用駐車場：あり<br />平成28年度新規開設保育園"}},
{"type":"Feature","geometry":{"type":"Point","coordinates":[139.83048,35.829824]},"properties":{"HID":"1035","Type":"認可保育所","Name":"（仮称）アートチャイルドケア\n南流山保育園","Label":"（仮称）アートチャイルドケア\n南流山保育園","Add1":"流山市木字下谷434番外65筆木地区67街区（地番）","Y":"35.85631","X":"139.90266","TEL":"070-5579-2383\n（開設準備室）","AgeS":"生後57日から","Full":"60","Open":"7:00","Close":"19:00","Extra":"Y","Temp":"null","url":"http://www.the0123child.com/saiyo/?utm_source=google&utm_medium=cpc&utm_campaign=google_cpc&gclid=CPX36ZTOiskCFYuCvQod4VIAPQ","Memo":"延長保育（午後）（土）：16:00～18:00<br />病後児保育：なし<br />統合保育：なし<br />送迎用駐車場：あり<br />平成28年度新規開設保育園"}},
{"type":"Feature","geometry":{"type":"Point","coordinates":[139.90201,35.835785]},"properties":{"HID":"1036","Type":"認可保育所","Name":"（仮称）キッズルームアリス南流山","Label":"（仮称）キッズルームアリス南流山","Add1":"流山市南流山2-21-6","Y":"35.85631","X":"139.90266","TEL":"04-7100-4154\n（開設準備室・柏高柳園）","AgeS":"生後57日から","Full":"19","Open":"7:00","Close":"20:00","Extra":"Y","Temp":"Y","url":"http://www.kids-room-arisu.com/","Memo":"延長保育（午後）（土）：16:00～20:00<br />病後児保育：なし<br />統合保育：なし<br />送迎用駐車場：あり<br />平成28年度新規開設小規模保育"}},
{"type":"Feature","geometry":{"type":"Point","coordinates":[139.9236,35.873152]},"properties":{"HID":"1037","Type":"認可保育所","Name":"（仮称）おおたかの森駅前保育園","Label":"（仮称）おおたかの森駅前保育園","Add1":"流山市西初石5-112-8","Y":"35.85631","X":"139.90266","TEL":"03-3291-1971\n（準備室・ＯＨＡＮＡ株式会社（仮））","AgeS":"4か月から","Full":"17","Open":"7:00","Close":"20:00","Extra":"Y","Temp":"Y","url":"http://dscnet.xsrv.jp/ootakanomori/","Memo":"延長保育（午後）（土）：16:00～19:00<br />病後児保育：なし<br />統合保育：なし<br />送迎用駐車場：なし<br />平成28年度新規開設小規模保育"}},
{"type":"Feature","geometry":{"type":"Point","coordinates":[139.9122108,35.8996856]},"properties":{"HID":"3001","Type":"幼稚園","Name":"流山市幼児教育支援センター附属幼稚園","Label":"流山市幼児教育支援センター附属幼稚園","Add1":"流山市江戸川台東3-2","Y":"35.8996856","X":"139.9122108","TEL":"04-7152-0353","Vacancy": null,"url": null}},
{"type":"Feature","geometry":{"type":"Point","coordinates":[139.8989717,35.8555431]},"properties":{"HID":"3002","Type":"幼稚園","Name":"このはな幼稚園","Label":"このはな幼稚園","Add1":"流山市流山2-105-2","Y":"35.8555431","X":"139.8989717","TEL":"04-7158-0264","Vacancy": null,"url": null}},
{"type":"Feature","geometry":{"type":"Point","coordinates":[139.9017287,35.8912288]},"properties":{"HID":"3003","Type":"幼稚園","Name":"江戸川台ひまわり幼稚園","Label":"江戸川台ひまわり幼稚園","Add1":"流山市富士見台1-3-6","Y":"35.8912288","X":"139.9017287","TEL":"04-7152-0435","Vacancy": null,"url": null}},
{"type":"Feature","geometry":{"type":"Point","coordinates":[139.9244909,35.8788284]},"properties":{"HID":"3004","Type":"幼稚園","Name":"神愛幼稚園","Label":"神愛幼稚園","Add1":"流山市東初石5-135-14","Y":"35.8788284","X":"139.9244909","TEL":"04-7154-1259","Vacancy": null,"url": null}},
{"type":"Feature","geometry":{"type":"Point","coordinates":[139.9134045,35.9132698]},"properties":{"HID":"3005","Type":"幼稚園","Name":"一の台幼稚園","Label":"一の台幼稚園","Add1":"流山市東深井498-4","Y":"35.9132698","X":"139.9134045","TEL":"04-7152-3059","Vacancy": null,"url": null}},
{"type":"Feature","geometry":{"type":"Point","coordinates":[139.9058211,35.8528463]},"properties":{"HID":"3006","Type":"幼稚園","Name":"平和台幼稚園","Label":"平和台幼稚園","Add1":"流山市平和台4-62-27","Y":"35.8528463","X":"139.9058211","TEL":"04-7158-5617","Vacancy": null,"url": null}},
{"type":"Feature","geometry":{"type":"Point","coordinates":[139.9323908,35.8604123]},"properties":{"HID":"3007","Type":"幼稚園","Name":"八木幼稚園","Label":"八木幼稚園","Add1":"流山市長崎2-629","Y":"35.8604123","X":"139.9323908","TEL":"04-7144-7790","Vacancy": null,"url": null}},
{"type":"Feature","geometry":{"type":"Point","coordinates":[139.9322607,35.8453785]},"properties":{"HID":"3008","Type":"幼稚園","Name":"黒川幼稚園","Label":"黒川幼稚園","Add1":"流山市前ヶ崎175","Y":"35.8453785","X":"139.9322607","TEL":"04-7145-9501","Vacancy": null,"url": null}},
{"type":"Feature","geometry":{"type":"Point","coordinates":[139.9146456,35.8442032]},"properties":{"HID":"3009","Type":"幼稚園","Name":"みやぞの幼稚園","Label":"みやぞの幼稚園","Add1":"流山市宮園2-8-11","Y":"35.8442032","X":"139.9146456","TEL":"04-7159-3954","Vacancy": null,"url": null}},
{"type":"Feature","geometry":{"type":"Point","coordinates":[139.9027581,35.8341852]},"properties":{"HID":"3010","Type":"幼稚園","Name":"南流山幼稚園","Label":"南流山幼稚園","Add1":"流山市流山2526","Y":"35.8341852","X":"139.9027581","TEL":"04-7159-7050","Vacancy": null,"url": null}}
]
}